{
  "errors": "",
  "partners": [
    {
      "id": "81",
      "clientCode": "P0080",
      "name": "3 Ptits Pois",
      "logo": "https://dolibarr.lagonette.org/dolibarr/documents/societe/81/logos/google.png",
      "phone": null,
      "website": "www.3ptitspois.fr",
      "email": "",
      "description": "test desc\r\navec é des à accents",
      "shortDescription": "desc courte",
      "mainCategory": "8",
      "sideCategories": [
        "9",
        "34"
      ],
      "isGonetteHeadquarter": "0",
      "locations": [
        {
          "id": 1,
          "openingHours": "lundi au mardi de 8h à 21h",
          "isExchangeOffice": "1",
          "address": "10 rue des Emeraudes",
          "city": "Lyon",
          "zipCode": "69006",
          "latitude": 45.7699371,
          "longitude": 4.8624413,
          "displayLocation": "1"
        }
      ]
    },
    {
      "id": "126",
      "clientCode": "P0995",
      "name": "a a a",
      "logo": "https://dolibarr.lagonette.org/dolibarr/documents/societe/126/logos/",
      "phone": null,
      "website": null,
      "email": null,
      "description": "description",
      "shortDescription": "desc courte",
      "mainCategory": "7",
      "sideCategories": [
        "11",
        "12",
        "34"
      ],
      "isGonetteHeadquarter": "0",
      "locations": [
        {
          "id": 2,
          "openingHours": null,
          "isExchangeOffice": null,
          "address": "1 rue du Président Edouard Herriot",
          "city": "Lyon",
          "zipCode": "69001",
          "latitude": 45.7671434,
          "longitude": 4.8345289,
          "displayLocation": "1"
        }
      ]
    },
    {
      "id": "130",
      "clientCode": null,
      "name": "a a a a a",
      "logo": "https://dolibarr.lagonette.org/dolibarr/documents/societe/130/logos/",
      "phone": null,
      "website": null,
      "email": null,
      "description": null,
      "shortDescription": null,
      "mainCategory": "35",
      "sideCategories": [
        "36"
      ],
      "isGonetteHeadquarter": "0",
      "locations": [
        {
          "id": 3,
          "openingHours": null,
          "isExchangeOffice": null,
          "address": "1 rue du président Edouard Herriot",
          "city": "Lyon",
          "zipCode": "69001",
          "latitude": 45.7671434,
          "longitude": 4.8345289,
          "displayLocation": "1"
        }
      ]
    },
    {
      "id": "46",
      "clientCode": "P0042",
      "name": "A Coeur de Peau",
      "logo": "https://dolibarr.lagonette.org/dolibarr/documents/societe/46/logos/tr.jpeg",
      "phone": "0472008619",
      "website": "www.acoeurdepeau.fr",
      "email": "olivier.montmagnon@gmail.com",
      "description": "super description 2\r\nsur plusieurs lignes test test",
      "shortDescription": "petite desc",
      "mainCategory": "9",
      "sideCategories": [
        ""
      ],
      "isGonetteHeadquarter": "0",
      "locations": [
        {
          "id": 4,
          "openingHours": "du lundi qu mardi test2",
          "isExchangeOffice": "1",
          "address": "41 Rue du Bon Pasteur",
          "city": "Lyon",
          "zipCode": "69001",
          "latitude": 45.7724256,
          "longitude": 4.830491,
          "displayLocation": "1"
        }
      ]
    },
    {
      "id": "138",
      "clientCode": "P0130",
      "name": "AlterConso",
      "logo": "https://dolibarr.lagonette.org/dolibarr/documents/societe/138/logos/",
      "phone": "0472044302",
      "website": "www.alter-conso.org",
      "email": "contact@alter-conso.org",
      "description": "La coopérative AlterConso distribue chaque semaine, à plus de 700 personnes, des paniers de produits agricoles locaux, dans 14 lieux de la Métropole de Lyon.\r\n\r\nSon action vise à permettre l’accès de tous-tes à une agriculture locale de qualité (paysanne et/ou biologique) à un prix abordable; à dynamiser l’agriculture périurbaine, à limiter les transports, à réduire l’utilisation d’emballages, à développer le lien social entre ville et campagne, et à créer des emplois.\r\n\r\nImportant : La Gonette n’est pas acceptée pour le paiement des paniers mais seulement sur les produits vendus séparément les jours de distribution",
      "shortDescription": null,
      "mainCategory": "3",
      "sideCategories": [
        ""
      ],
      "isGonetteHeadquarter": "0",
      "locations": [
        {
          "id": 5,
          "openingHours": "Mardi de 17h00 à 19h15",
          "isExchangeOffice": null,
          "address": "13, rue Delandine",
          "city": "Lyon",
          "zipCode": "69002",
          "latitude": 45.7469504,
          "longitude": 4.8275673000001,
          "displayLocation": "1"
        },
        {
          "id": 6,
          "openingHours": "Vendredi de 17h à 19h",
          "isExchangeOffice": null,
          "address": "36 Cours du Général Giraud",
          "city": "Lyon",
          "zipCode": "69001",
          "latitude": 45.7687103,
          "longitude": 4.8208,
          "displayLocation": "1"
        },
        {
          "id": 7,
          "openingHours": "Jeudi de 17h à 19h",
          "isExchangeOffice": null,
          "address": "6 rue des Fossées de Trion",
          "city": "Lyon",
          "zipCode": "69005",
          "latitude": 45.757491,
          "longitude": 4.8125536,
          "displayLocation": "1"
        },
        {
          "id": 8,
          "openingHours": "Jeudi de 17h30 à 19h15",
          "isExchangeOffice": null,
          "address": "10 impasse Secret",
          "city": "Lyon",
          "zipCode": "69005",
          "latitude": 45.7552259,
          "longitude": 4.7945038,
          "displayLocation": "1"
        },
        {
          "id": 9,
          "openingHours": "Vendredi de 17h à 19h",
          "isExchangeOffice": null,
          "address": "1 rue Jacques Monod",
          "city": "Lyon",
          "zipCode": "69007",
          "latitude": 45.7307213,
          "longitude": 4.8280297,
          "displayLocation": "1"
        },
        {
          "id": 10,
          "openingHours": "Vendredi de 17h30 à 19h15",
          "isExchangeOffice": null,
          "address": "91 Rue de la République",
          "city": "Oullins",
          "zipCode": "69600",
          "latitude": 45.714789,
          "longitude": 4.8064131,
          "displayLocation": "1"
        },
        {
          "id": 11,
          "openingHours": "Jeudi de 17h30 à 19h15",
          "isExchangeOffice": null,
          "address": "39 Rue Georges Courteline",
          "city": "Villeurbanne",
          "zipCode": "69100",
          "latitude": 45.779221,
          "longitude": 4.878559,
          "displayLocation": "1"
        },
        {
          "id": 12,
          "openingHours": "Jeudi de 17h à 19h",
          "isExchangeOffice": null,
          "address": "19 Rue Louis Braille",
          "city": "Villeurbanne",
          "zipCode": "69100",
          "latitude": 45.7594383,
          "longitude": 4.8824566000001,
          "displayLocation": "1"
        },
        {
          "id": 13,
          "openingHours": "Mercredi de 17h à 19h",
          "isExchangeOffice": null,
          "address": "3 Avenue Maurice Thorez",
          "city": "Vaulx-en-Velin",
          "zipCode": "69120",
          "latitude": 45.7803056,
          "longitude": 4.9138978,
          "displayLocation": "1"
        },
        {
          "id": 14,
          "openingHours": "Mercredi de 17h30 à 19h15",
          "isExchangeOffice": null,
          "address": "9 bis Avenue du Général Leclerc",
          "city": "Rilleux-la-Pape",
          "zipCode": "69140",
          "latitude": 45.8141458,
          "longitude": 4.9002173,
          "displayLocation": "1"
        },
        {
          "id": 15,
          "openingHours": "Mercredi de 17h à 19h",
          "isExchangeOffice": null,
          "address": "20 Rue Villard",
          "city": "Bron",
          "zipCode": "69500",
          "latitude": 45.7322109,
          "longitude": 4.9081100999999,
          "displayLocation": "1"
        },
        {
          "id": 16,
          "openingHours": "Mardi de 17h à 19h",
          "isExchangeOffice": null,
          "address": "8 Rue Saint Théodore",
          "city": "Lyon",
          "zipCode": "69003",
          "latitude": 45.7494349,
          "longitude": 4.8630424,
          "displayLocation": "1"
        },
        {
          "id": 17,
          "openingHours": "Mercredi de 17h30 à 19h",
          "isExchangeOffice": null,
          "address": "13 Avenue Marcel Paul",
          "city": "Vénissieux",
          "zipCode": "69200",
          "latitude": 45.6998899,
          "longitude": 4.8815511,
          "displayLocation": "1"
        },
        {
          "id": 18,
          "openingHours": "Mardi de 17h30 à 19h",
          "isExchangeOffice": null,
          "address": "19 Rue Roquette",
          "city": "Lyon",
          "zipCode": "69009",
          "latitude": 45.7763452,
          "longitude": 4.8070125,
          "displayLocation": "1"
        }
      ]
    },
    {
      "id": "33",
      "clientCode": "P0033",
      "name": "BiereLab",
      "logo": "https://dolibarr.lagonette.org/dolibarr/documents/societe/33/logos/google.png",
      "phone": "0650880350",
      "website": "www.brasserieplatypus.com",
      "email": "contact@bierelab.com",
      "description": "Description client 3",
      "shortDescription": "Description courte",
      "mainCategory": "15",
      "sideCategories": [
        "5",
        "6"
      ],
      "isGonetteHeadquarter": "0",
      "locations": [
        {
          "id": 19,
          "openingHours": "du lundi au mardi",
          "isExchangeOffice": null,
          "address": "9 boulevard Edmond Michelet",
          "city": "Lyon",
          "zipCode": "69008",
          "latitude": 45.7325191,
          "longitude": 4.8773264,
          "displayLocation": "1"
        }
      ]
    },
    {
      "id": "137",
      "clientCode": "P0000",
      "name": "Local Gonette",
      "logo": "https://dolibarr.lagonette.org/dolibarr/documents/societe/137/logos/La-Gonette.png",
      "phone": "0951579133",
      "website": "www.lagonette.org",
      "email": "contact@lagonette.org",
      "description": null,
      "shortDescription": "Local de la Gonette",
      "mainCategory": "-1",
      "sideCategories": [],
      "isGonetteHeadquarter": "1",
      "locations": [
        {
          "id": 20,
          "openingHours": "lundi au vendredi de 9h à 18h",
          "isExchangeOffice": "1",
          "address": "4 rue Imbert Colomès",
          "city": "Lyon",
          "zipCode": "69001",
          "latitude": 45.771293,
          "longitude": 4.8320613,
          "displayLocation": "1"
        }
      ]
    },
    {
      "id": "107",
      "clientCode": "P0107",
      "name": "Ludi'zique",
      "logo": "https://dolibarr.lagonette.org/dolibarr/documents/societe/107/logos/tg.jpeg",
      "phone": null,
      "website": "ludiziquz.sitew.fr",
      "email": "ludizique@yahoo.fr",
      "description": "desc",
      "shortDescription": null,
      "mainCategory": "6",
      "sideCategories": [
        ""
      ],
      "isGonetteHeadquarter": "0",
      "locations": [
        {
          "id": 21,
          "openingHours": null,
          "isExchangeOffice": "1",
          "address": "11, Impasse de l'Ordre",
          "city": "Lyon",
          "zipCode": "69003",
          "latitude": 45.757348,
          "longitude": 4.8666969,
          "displayLocation": "1"
        }
      ]
    },
    {
      "id": "134",
      "clientCode": "P0999",
      "name": "test seb",
      "logo": "https://dolibarr.lagonette.org/dolibarr/documents/societe/134/logos/tg.jpeg",
      "phone": "0606060606",
      "website": "internet.web",
      "email": "test@test.com",
      "description": "blablablablablabla 2",
      "shortDescription": "test description",
      "mainCategory": "3",
      "sideCategories": [
        ""
      ],
      "isGonetteHeadquarter": "0",
      "locations": [
        {
          "id": 22,
          "openingHours": "horaire d'ouverture\r\nlundi bla\r\nùardi bla\r\nmercredi bla",
          "isExchangeOffice": "1",
          "address": "rue imbert colomes",
          "city": "Lyon",
          "zipCode": "69001",
          "latitude": 45.7713694,
          "longitude": 4.8325118,
          "displayLocation": "1"
        }
      ]
    },
    {
      "id": "135",
      "clientCode": "P0998",
      "name": "test seb 2",
      "logo": "https://dolibarr.lagonette.org/dolibarr/documents/societe/135/logos/",
      "phone": null,
      "website": "test.com",
      "email": "blabla@gmail.com",
      "description": "descr longue\r\nblablabal\r\nblablabla",
      "shortDescription": "desc courte",
      "mainCategory": "12",
      "sideCategories": [
        "1",
        "2",
        "3",
        "4",
        "5",
        "6",
        "7",
        "8",
        "9",
        "10",
        "11",
        "12",
        "13",
        "14",
        "15",
        "16",
        "17",
        "18",
        "19",
        "20",
        "21",
        "22",
        "23"
      ],
      "isGonetteHeadquarter": "0",
      "locations": [
        {
          "id": 23,
          "openingHours": "Horaores d'ouverture\r\nJours d'ouverture",
          "isExchangeOffice": "1",
          "address": "",
          "city": null,
          "zipCode": null,
          "displayLocation": "0"
        }
      ]
    }
  ],
  "md5_sum": "fee28e95e72d5a122eaa05cfe344f820"
}